WaterQualityID,StationCode,StationName,TargetLatitude,TargetLongitude,Region,SampleDate,"Arsenic, Total","Cadmium, Total","Chromium, Total","Nitrogen, Total, Total","Oxygen, Dissolved, Total","Phosphorus as P, Total","Total Organic Carbon, Total","Turbidity, Total",pH,SampleYear,index_right,FIRE_NAME,ALARM_DATE,FireYear,GIS_ACRES
47063,554KER040,Keyesville Rec Area,35.639,-118.4846,5,3/27/2002,,,,,,,,,8.5,2002,7752,BOREL,2002-06-15 00:00:00+00:00,2002,3417.8994
47062,554KER040,Keyesville Rec Area,35.639,-118.4846,5,6/19/2002,,,,,8.87,,,,8.5,2002,7752,BOREL,2002-06-15 00:00:00+00:00,2002,3417.8994
49010,631MIL001,"Mill Cr, central",38.476,-119.48767,6,7/19/2002,,,,,7.5,0.136,,3.2,8.2,2002,7740,CANNON,2002-06-15 00:00:00+00:00,2002,26684.135
49086,631WWK001,"West Walker River, at Coleville",38.51337,-119.4488,6,8/21/2002,,,,,,,,2,8.3,2002,7740,CANNON,2002-06-15 00:00:00+00:00,2002,26684.135
47080,554KER040,Keyesville Rec Area,35.639,-118.4846,5,9/17/2002,,,,,,0.066,,,8.1,2002,7752,BOREL,2002-06-15 00:00:00+00:00,2002,3417.8994
47074,554KER040,Keyesville Rec Area,35.639,-118.4846,5,12/11/2002,,,,,8.35,0.36,,,7.8,2002,7752,BOREL,2002-06-15 00:00:00+00:00,2002,3417.8994
53987,910OTJMC4,Jamul Creek 4,32.63747,-116.88405,9,1/21/2003,,,,,,,,1.4,7.39,2003,7402,MINE/OTAY,2003-10-26 00:00:00+00:00,2003,44734.13
22670,403STC082,Random Site 82 - Santa Clara River,34.33583,-119.06833,4,2/24/2003,,,,,,,,5.14,7.96,2003,7397,SIMI,2003-10-25 00:00:00+00:00,2003,107570.4
22822,404SMB010,Encinal Canyon Creek Lower,34.03934,-118.86875,4,3/4/2003,,,,,,0.066,,1.2,7.88,2003,7465,PACIFIC,2003-01-06 00:00:00+00:00,2003,805.63464
48604,628SHP001,"Sheep Cr, below Scout Camp",34.25364,-117.12391,6,3/20/2003,,,,,9.7,,,,,2003,7398,OLD,2003-10-25 00:00:00+00:00,2003,91428
22824,404SMB010,Encinal Canyon Creek Lower,34.03934,-118.86875,4,3/24/2003,,,,,,0.0868,,,,2003,7465,PACIFIC,2003-01-06 00:00:00+00:00,2003,805.63464
53986,910OTJMC4,Jamul Creek 4,32.63747,-116.88405,9,4/21/2003,,,,,,,,3.06,,2003,7402,MINE/OTAY,2003-10-26 00:00:00+00:00,2003,44734.13
53989,910OTJMC4,Jamul Creek 4,32.63747,-116.88405,9,5/15/2003,,,,,,,,1.8,,2003,7402,MINE/OTAY,2003-10-26 00:00:00+00:00,2003,44734.13
48579,628SHP001,"Sheep Cr, below Scout Camp",34.25364,-117.12391,6,6/18/2003,,,,,6.5,,,,,2003,7398,OLD,2003-10-25 00:00:00+00:00,2003,91428
21410,315JAL,Jalama Creek at County Park at RR trussels,34.51217198,-120.498226,3,3/4/2004,,,,0.52,,0.23,,22.2,7.99,2004,7194,JALAMA,2004-07-19 00:00:00+00:00,2004,333.0409
21362,315JAL,Jalama Creek at County Park at RR trussels,34.51217198,-120.498226,3,5/19/2004,,,,0.4,9.93,0.17,,11.4,8.14,2004,7194,JALAMA,2004-07-19 00:00:00+00:00,2004,333.0409
21365,315JAL,Jalama Creek at County Park at RR trussels,34.51217198,-120.498226,3,6/23/2004,,,,1.33,9.35,0.15,,16.6,,2004,7194,JALAMA,2004-07-19 00:00:00+00:00,2004,333.0409
21423,315JAL,Jalama Creek at County Park at RR trussels,34.51217198,-120.498226,3,8/10/2004,,,,,8.28,,,,7.94,2004,7194,JALAMA,2004-07-19 00:00:00+00:00,2004,333.0409
21424,315JAL,Jalama Creek at County Park at RR trussels,34.51217198,-120.498226,3,8/11/2004,,,,,7.39,,,,7.9,2004,7194,JALAMA,2004-07-19 00:00:00+00:00,2004,333.0409
21314,315JAL,Jalama Creek at County Park at RR trussels,34.51217198,-120.498226,3,10/7/2004,,,,0.4,8.36,0.16,,23.3,,2004,7194,JALAMA,2004-07-19 00:00:00+00:00,2004,333.0409
21434,315JAL,Jalama Creek at County Park at RR trussels,34.51217198,-120.498226,3,11/4/2004,,,,0.3,9.41,0.16,,1.2,,2004,7194,JALAMA,2004-07-19 00:00:00+00:00,2004,333.0409
21441,315JAL,Jalama Creek at County Park at RR trussels,34.51217198,-120.498226,3,12/8/2004,,,,0.53,9.78,0.17,,1.6,7.88,2004,7194,JALAMA,2004-07-19 00:00:00+00:00,2004,333.0409
47620,602LWT001,Lower Wet Fork Sawmill Cr/Glass,37.82313,-118.65232,6,6/28/2006,,,,,,0.04,,,7.74,2006,6521,SAWMILL,2006-09-14 00:00:00+00:00,2006,7437.1104
53271,902RCWGRx,Rainbow Creek upstream of Willow Glen Road,33.40725,-117.19969,9,4/28/2007,,,,,8.77,,,,,2007,6170,RICE,2007-10-07 00:00:00+00:00,2007,9471.854
53347,903FCPSPx,French Creek (FCPSP),33.35017,-116.91278,9,4/29/2007,,,,,6,,,,,2007,6159,POOMACHA,2007-10-23 00:00:00+00:00,2007,49410.97
52651,801SAR528,Santa Ana River Random Olsen Site 528,33.87475,-117.71311,8,5/25/2008,,,,,,,,,7.86,2008,5727,FREEWAY,2008-11-15 00:00:00+00:00,2008,30305.232
47161,554PS0160,Kelso Creek,35.46624,-118.3258,5,8/5/2008,,,,,3.34,0.375,,4.27,7.75,2008,5721,PIUTE,2008-06-28 00:00:00+00:00,2008,37346.246
27213,518CPCRCR,Chips Creek,40.0055,-121.271,5,8/14/2008,,,,,,0.0219,,0.88,7.6,2008,5718,BTU LIGHTNING COMPLEX,2008-07-02 00:00:00+00:00,2008,53699.332
27296,518PS0017,South Branch Middle Fork Feather River,39.70612,-121.20361,5,8/19/2008,,,,,,0.0219,,0.49,,2008,5749,SOUTH-FREY,2008-06-21 00:00:00+00:00,2008,12401.953
31921,520BUT900,Butte Creek at Honey Run Bridge,39.728416,-121.703799,5,8/31/2008,,,,,,,,,8.5,2008,5733,HUMBOLDT,2008-06-11 00:00:00+00:00,2008,23344.334
1283,106MNCAHC,Miner's Creek,40.638,-123.321,1,10/1/2008,,,,,13.94,0.0367,,0.85,8.1,2008,5732,MINERS,2008-06-21 00:00:00+00:00,2008,24876.34
51514,722PS0611,San Felipe Creek ~1mi below Sentenac Cienaga,33.11256732,-116.4447054,7,6/8/2010,,,,0.699,,0.0315,,2.63,7.38,2010,5360,NARROWS,2010-06-16 00:00:00+00:00,2010,49.861908
22746,404ARRSEQ,Arroyo Sequit trib. ~0.5mi above confluence,34.08506,-118.91206,4,6/6/2012,,,,0.324,5.02,0.056,,0.16,8.19,2012,4909,MULHOLLAND,2012-10-26 00:00:00+00:00,2012,1.0062814
27309,518PS0113,Grizzly Creek ~0.3mi above Yellow Cr.,40.0713,-121.2563,5,7/9/2012,,,,0.118,8.17,0.0099,,0.49,7.6,2012,4588,CHIPS,2012-07-28 00:00:00+00:00,2012,76349.71
38313,536TUO301,Clavey River at Gods Bath,37.98615,-120.05279,5,6/17/2013,,,,,9.48,,,0.25,7.58,2013,4290,RIM,2013-08-17 00:00:00+00:00,2013,256175.53
38317,536TUO302,Tuolumne River at Meryls Pool,37.83683,-120.05379,5,6/17/2013,,,,,10.19,,,0.99,7.45,2013,4290,RIM,2013-08-17 00:00:00+00:00,2013,256175.53
38327,536TUO900,Rainbow Pools - SF Tuolumne River,37.82145,-120.0129833,5,6/17/2013,,,,,,,,0.3,7.7,2013,4290,RIM,2013-08-17 00:00:00+00:00,2013,256175.53
38312,536TUO301,Clavey River at Gods Bath,37.98615,-120.05279,5,7/17/2013,,,,,8.94,,,0.2,7.84,2013,4290,RIM,2013-08-17 00:00:00+00:00,2013,256175.53
38316,536TUO302,Tuolumne River at Meryls Pool,37.83683,-120.05379,5,7/17/2013,,,,,9.4,,,0.2,,2013,4290,RIM,2013-08-17 00:00:00+00:00,2013,256175.53
38326,536TUO900,Rainbow Pools - SF Tuolumne River,37.82145,-120.0129833,5,7/17/2013,,,,,,,,0.46,7.84,2013,4290,RIM,2013-08-17 00:00:00+00:00,2013,256175.53
38314,536TUO301,Clavey River at Gods Bath,37.98615,-120.05279,5,8/14/2013,,,,,,,,0.26,9.65,2013,4290,RIM,2013-08-17 00:00:00+00:00,2013,256175.53
38320,536TUO302,Tuolumne River at Meryls Pool,37.83683,-120.05379,5,8/14/2013,,,,,9.59,,,0.75,7.68,2013,4290,RIM,2013-08-17 00:00:00+00:00,2013,256175.53
38330,536TUO900,Rainbow Pools - SF Tuolumne River,37.82145,-120.0129833,5,8/14/2013,,,,,,,,0.81,7.9,2013,4290,RIM,2013-08-17 00:00:00+00:00,2013,256175.53
54034,911NP9UCW,Cottonwood Creek ~1.4mi above I8,32.81829,-116.49235,9,3/24/2014,,,,0.209,,0.0238,,,10.5,2014,4106,GUN,2014-03-08 00:00:00+00:00,2014,270.07477
54031,911NP9UCW,Cottonwood Creek ~1.4mi above I8,32.81829,-116.49235,9,4/29/2014,,,,0.313,,0.0311,,0.82,8.3,2014,4106,GUN,2014-03-08 00:00:00+00:00,2014,270.07477
472,105CE0329,Johns Meadow Creek ~1mi above S. Russian Creek,41.3075,-123.0336111,1,7/23/2014,,,,0.0875,8.22,0.0047,,0,,2014,4058,WHITES,2014-07-30 00:00:00+00:00,2014,33794.438
52733,801WE1132,Santa Ana River SF ~3.5mi above Mainstem,34.13332,-116.84289,8,4/20/2015,,,,0.0511,8.52,0.0064,,0.56,10.6,2015,3745,LAKE,2015-06-17 00:00:00+00:00,2015,31284.441
46668,552MFCAKR,Mill Flat Creek,36.8529,-119.09738,5,5/13/2015,,,,0.157,,0.0066,,8.05,8.8,2015,3740,ROUGH,2015-07-31 00:00:00+00:00,2015,151546.81
52492,801LL0001,Lost Lake Depressional Wetland Site 0001,34.272969,-117.465228,8,6/13/2016,,,,,0.96,,,,8.34,2016,3383,BLUE CUT,2016-08-16 00:00:00+00:00,2016,36266.695
22636,403STC010,Random Site 10 - Lion Canyon,34.53306,-119.15833,4,5/23/2017,,,,0.122,7.42,0.517,,0.28,7.65,2017,2770,THOMAS,2017-12-04 00:00:00+00:00,2017,281790.88
22595,402S01567,"Matilija Creek, Upper NF above mainstem",34.5096,-119.3837,4,5/24/2017,,,,0.126,8.59,0.028,,0.08,8.21,2017,2770,THOMAS,2017-12-04 00:00:00+00:00,2017,281790.88
12,102PS0331,Applegate River ~0.4mi above Lick Gulch,41.98886093,-123.1642933,1,7/11/2017,,,,0.111,9.31,,,0.41,8.5,2017,2782,ABNEY,2017-08-10 00:00:00+00:00,2017,32893.26
2002,111FS0008,Blue Slides Creek above Bear Cr.,39.319333,-122.8453617,1,7/9/2018,,,,-0.005,8.18,0.094,,3.02,8.6,2018,2354,RANCH,2018-07-27 00:00:00+00:00,2018,410202.47
25061,513STCAIV,Stanton Creek ~1.4mi above Indian Valley Res.,39.1846,-122.5356,5,7/11/2018,,,,-0.005,8.26,0.067,,0.29,8.5,2018,2354,RANCH,2018-07-27 00:00:00+00:00,2018,410202.47
36240,534SED001,Arnot Cr 1,38.407354,-119.7993617,5,7/25/2018,,,,0.83,9,0.011,,0.21,8.3,2018,2366,DONNELL,2018-08-01 00:00:00+00:00,2018,36461.418
25076,513UNCAKC,Unnamed Creek,39.16692,-122.50673,5,10/25/2018,,,,0.24,8.54,0.257,,0.1,,2018,2354,RANCH,2018-07-27 00:00:00+00:00,2018,410202.47
25067,513STCAIV,Stanton Creek ~1.4mi above Indian Valley Res.,39.1846,-122.5356,5,10/26/2018,,,,0.33,9.63,0.049,,0.06,8.9,2018,2354,RANCH,2018-07-27 00:00:00+00:00,2018,410202.47
1995,111FS0008,Blue Slides Creek above Bear Cr.,39.319333,-122.8453617,1,10/29/2018,,,,0.14,,0.051,,,,2018,2354,RANCH,2018-07-27 00:00:00+00:00,2018,410202.47
25016,513CCNASC,"Cache Creek, NF ~0.4mi above Spanish Cr.",39.165446,-122.619986,5,10/29/2018,,,,6.66,8.42,0.463,,0.25,8.7,2018,2354,RANCH,2018-07-27 00:00:00+00:00,2018,410202.47
1742,111CE0551,Bear Creek below FS road 17NO2,39.35314,-122.77651,1,10/31/2018,,,,-0.005,,0.016,,,,2018,2354,RANCH,2018-07-27 00:00:00+00:00,2018,410202.47
2537,111WER159,Copper Butte Creek ~0.5mi above Eel River,39.42944444,-122.8444444,1,11/6/2018,,,,0.03,12.2,0.045,,0.76,8.8,2018,2354,RANCH,2018-07-27 00:00:00+00:00,2018,410202.47
32521,521BUT204,Hamlin Creek at Paradise,39.74329,-121.62914,5,12/17/2018,,,,,,,1.82,23.5,7.22,2018,2356,CAMP,2018-11-08 00:00:00+00:00,2018,153335.56
32536,521BUT205,Clear Creek at Paradise,39.75238,-121.60515,5,12/17/2018,,,,,10.31,0.047,2.13,9.77,,2018,2356,CAMP,2018-11-08 00:00:00+00:00,2018,153335.56
32550,521BUT206,Dry Creek at Paradise,39.75227,-121.57667,5,12/17/2018,,,,,10.56,0.04,,20.3,7.3,2018,2356,CAMP,2018-11-08 00:00:00+00:00,2018,153335.56
3062,114FR0102,Franz Creek at Chalk Hill Road,38.61068,-122.77254,1,1/6/2019,,,,,11.71,,,,7.58,2019,2036,KINCADE,2019-10-23 00:00:00+00:00,2019,77762.14
3061,114FR0102,Franz Creek at Chalk Hill Road,38.61068,-122.77254,1,1/16/2019,,,,3.23,10.87,0.519,8.8,,7.42,2019,2036,KINCADE,2019-10-23 00:00:00+00:00,2019,77762.14
9020,304WAD,Waddell Creek Lagoon at Highway 1,37.09641198,-122.276968,3,1/7/2020,,,,,,0.07,,1.2,7.01,2020,1542,CZU LIGHTNING COMPLEX,2020-08-16 00:00:00+00:00,2020,86553.46
9069,304WAD,Waddell Creek Lagoon at Highway 1,37.09641198,-122.276968,3,2/6/2020,,,,,10.98,0.053,,1.4,7.14,2020,1542,CZU LIGHTNING COMPLEX,2020-08-16 00:00:00+00:00,2020,86553.46
9085,304WAD,Waddell Creek Lagoon at Highway 1,37.09641198,-122.276968,3,3/5/2020,,,,,10.29,0.083,,1.9,,2020,1542,CZU LIGHTNING COMPLEX,2020-08-16 00:00:00+00:00,2020,86553.46
49159,631WWK001,"West Walker River, at Coleville",38.51337,-119.4488,6,3/11/2020,,,,0.13,9.5,0.01,,1.14,,2020,1558,MOUNTAIN VIEW,2020-11-17 00:00:00+00:00,2020,20374.564
27347,518SCEBAM,"Soda Creek, EB above mainstem",40.045,-121.0017,5,5/5/2021,,,,,6.21,,,0.1,,2021,1144,DIXIE,2021-07-14 00:00:00+00:00,2021,963405.44
27324,518RCAJNC,Rock Creek ~5.7mi above Jennie Creek,40.3887,-121.1574,5,5/26/2021,,,,,8.07,,,0.7,8.2,2021,1144,DIXIE,2021-07-14 00:00:00+00:00,2021,963405.44
27220,518FC1350,Clear Creek below Seneka Rd.,40.11089,-121.1254,5,6/1/2021,,,,,8.1,0.03,,0.45,7.83,2021,1144,DIXIE,2021-07-14 00:00:00+00:00,2021,963405.44
47156,554NYCGWD,Nobe Young Creek ~0.2mi above Great Western Divide Hwy,36.020505,-118.5668582,5,6/8/2021,,,,,6.8,0.05,,1.35,7.71,2021,1151,WINDY,2021-09-10 00:00:00+00:00,2021,97528.266
49428,632ECR005,"East Fork Carson, at USGS gage blw Markleeville",38.71542,-119.7644,6,6/9/2021,,,,,,0.04,,1.64,,2021,1154,TAMARACK,2021-07-04 00:00:00+00:00,2021,67054.51
27319,518RCAJNC,Rock Creek ~5.7mi above Jennie Creek,40.3887,-121.1574,5,6/28/2021,,,,,6.65,0.04,,0.26,8.12,2021,1144,DIXIE,2021-07-14 00:00:00+00:00,2021,963405.44
27307,518PS0093,Little Grizzly Creek ~2.1mi below Oliver Cr.,39.9982,-120.7378,5,7/13/2021,,,,,6.62,0.04,,0.28,8.33,2021,1144,DIXIE,2021-07-14 00:00:00+00:00,2021,963405.44
27212,518CPCRCR,Chips Creek,40.0055,-121.271,5,7/15/2021,,,,,7.3,0.02,,0.46,8.14,2021,1144,DIXIE,2021-07-14 00:00:00+00:00,2021,963405.44
27339,518RCNAPC,"Rice Creek, North Arm",40.4002,-121.439,5,7/19/2021,,,,,,0.07,,0.35,8.17,2021,1144,DIXIE,2021-07-14 00:00:00+00:00,2021,963405.44
27325,518RCAJNC,Rock Creek ~5.7mi above Jennie Creek,40.3887,-121.1574,5,7/26/2021,,,,,7.71,0.04,,0.14,8.21,2021,1144,DIXIE,2021-07-14 00:00:00+00:00,2021,963405.44
49494,632ECRB10,"East Fork Carson River, above Hangman's bridge",38.68959,-119.76394,6,8/2/2021,,,,,7.5,,,110,,2021,1154,TAMARACK,2021-07-04 00:00:00+00:00,2021,67054.51
25846,514SFA222,Silver Fork American River at Silver Fork Rd.,38.69487,-120.20136,5,8/17/2021,,,,,8.03,0.04,,2.09,8.3,2021,1146,CALDOR,2021-08-15 00:00:00+00:00,2021,221786.39
27408,518YLCAFR,Yellow Creek ~0.4mi above NF Feather River,40.012071,-121.2475051,5,9/7/2021,,,,,,0.03,,1.4,8.8,2021,1144,DIXIE,2021-07-14 00:00:00+00:00,2021,963405.44
49351,632ECR005,"East Fork Carson, at USGS gage blw Markleeville",38.71542,-119.7644,6,9/16/2021,,,,,,0.05,,1.87,7.9,2021,1154,TAMARACK,2021-07-04 00:00:00+00:00,2021,67054.51
49497,632ECRB10,"East Fork Carson River, above Hangman's bridge",38.68959,-119.76394,6,9/22/2021,,,,,9.1,0.05,,,8.3,2021,1154,TAMARACK,2021-07-04 00:00:00+00:00,2021,67054.51
25845,514SFA222,Silver Fork American River at Silver Fork Rd.,38.69487,-120.20136,5,10/21/2021,,,,,,,,5.04,9.4,2021,1146,CALDOR,2021-08-15 00:00:00+00:00,2021,221786.39
49507,632ECRB10,"East Fork Carson River, above Hangman's bridge",38.68959,-119.76394,6,10/26/2021,,,,,10.4,,,22.1,7.7,2021,1154,TAMARACK,2021-07-04 00:00:00+00:00,2021,67054.51
24747,509TEH402,Mill Creek near Mineral,40.36222,-121.504444,5,11/3/2021,,,,,9.87,,,4.27,7.47,2021,1144,DIXIE,2021-07-14 00:00:00+00:00,2021,963405.44
35982,532ELD011,Grizzly Creek at Parkside Drive,38.63734,-120.51978,5,11/9/2021,,,,,9.99,,,35.9,7.19,2021,1146,CALDOR,2021-08-15 00:00:00+00:00,2021,221786.39
35985,532ELD012,Grizzly Creek at Leoni Road,38.63409,-120.52445,5,11/9/2021,,,,,8.21,,,13.2,,2021,1146,CALDOR,2021-08-15 00:00:00+00:00,2021,221786.39
35987,532ELD013,"Cosumnes River, Steely Fork at Leoni Road",38.63158,-120.5093,5,11/9/2021,,,,,10.57,,,299,7,2021,1146,CALDOR,2021-08-15 00:00:00+00:00,2021,221786.39
49429,632ECR005,"East Fork Carson, at USGS gage blw Markleeville",38.71542,-119.7644,6,11/17/2021,,,,,,0.04,,1.62,7.6,2021,1154,TAMARACK,2021-07-04 00:00:00+00:00,2021,67054.51
49508,632ECRB10,"East Fork Carson River, above Hangman's bridge",38.68959,-119.76394,6,11/22/2021,,,,,11.8,0.06,,1.47,7.19,2021,1154,TAMARACK,2021-07-04 00:00:00+00:00,2021,67054.51
35981,532ELD011,Grizzly Creek at Parkside Drive,38.63734,-120.51978,5,12/14/2021,,,,,,,,30.2,7.85,2021,1146,CALDOR,2021-08-15 00:00:00+00:00,2021,221786.39
35984,532ELD012,Grizzly Creek at Leoni Road,38.63409,-120.52445,5,12/14/2021,,,,,9.91,,,76,7.41,2021,1146,CALDOR,2021-08-15 00:00:00+00:00,2021,221786.39
